%time,field.linear.x,field.linear.y,field.linear.z,field.angular.x,field.angular.y,field.angular.z
319400000000,0.0,0.0,0.0,0.0,0.0,0.0
319600000000,-0.12292744164082214,-0.38061793866921595,0.0,0.0,0.0,0.0
319700000000,-0.12263096494514045,-0.38068461955729216,0.0,0.0,0.0,0.0
319800000000,0.0017384843180607136,-0.1900824065162435,0.0,0.0,0.0,0.0
319900000000,0.09937969442988327,-0.3567000932307121,0.0,0.0,0.0,0.0
320100000000,-0.09915626004904922,-0.2876517018384552,0.0,0.0,0.0,0.0
320200000000,-0.19911869475101188,-0.34691749076783857,0.0,0.0,0.0,0.0
320300000000,-0.10781287213823039,-0.3851965532053806,0.0,0.0,0.0,0.0
320400000000,0.08786638461841073,-0.31750480897082645,0.0,0.0,0.0,0.0
320600000000,0.16541725871322785,-0.36419380900806236,0.0,0.0,0.0,0.0
320700000000,0.11408595037054339,-0.2981848282071157,0.0,0.0,0.0,0.0
320800000000,0.08958729731474457,-0.3898385770544516,0.0,0.0,0.0,0.0
320900000000,0.051396212318265196,-0.36444803172384804,0.0,0.0,0.0,0.0
321100000000,0.04745552472548977,-0.3389950084998267,0.0,0.0,0.0,0.0
321200000000,0.08335111283247326,-0.39121936556053605,0.0,0.0,0.0,0.0
321300000000,0.07118408311034777,-0.3900184964647274,0.0,0.0,0.0,0.0
321400000000,0.059046875583675294,-0.3554188715127195,0.0,0.0,0.0,0.0
321600000000,0.06585693006294631,-0.3945413346693654,0.0,0.0,0.0,0.0
321700000000,0.050477751980802704,-0.3398758803373009,0.0,0.0,0.0,0.0
321800000000,0.06071776648288784,-0.3953648350995944,0.0,0.0,0.0,0.0
321900000000,0.049312688954837314,-0.3421442920326103,0.0,0.0,0.0,0.0
322100000000,0.04807535525940495,-0.3407064964574458,0.0,0.0,0.0,0.0
322200000000,0.03651628345340075,-0.263744150529586,0.0,0.0,0.0,0.0
322300000000,0.04537452954847089,-0.39741810737339955,0.0,0.0,0.0,0.0
322400000000,0.049318757703060906,-0.396947931268859,0.0,0.0,0.0,0.0
322600000000,0.04465625233483421,-0.38869452575318764,0.0,0.0,0.0,0.0
322700000000,0.031964280933592826,-0.2815885894656392,0.0,0.0,0.0,0.0
322800000000,0.03807514798416764,-0.3348036691967644,0.0,0.0,0.0,0.0
322900000000,0.035154798931409624,-0.3109240483830014,0.0,0.0,0.0,0.0
323100000000,0.04151445758310644,-0.39783985447863374,0.0,0.0,0.0,0.0
323200000000,0.03756161683905698,-0.36996377852155876,0.0,0.0,0.0,0.0
323300000000,0.029930819974288293,-0.29029876404909905,0.0,0.0,0.0,0.0
323400000000,0.035602531429383154,-0.33989385840306235,0.0,0.0,0.0,0.0
323600000000,0.04242965034155952,-0.39774329004006215,0.0,0.0,0.0,0.0
323700000000,0.037763618296355765,-0.35580674286459546,0.0,0.0,0.0,0.0
323800000000,0.03609821737062879,-0.3983678183571846,0.0,0.0,0.0,0.0
323900000000,0.029660977779762558,-0.3323742773483549,0.0,0.0,0.0,0.0
324100000000,0.031680150943053195,-0.33442242222935975,0.0,0.0,0.0,0.0
324200000000,0.028027154286841337,-0.2886897729671702,0.0,0.0,0.0,0.0
324300000000,0.03480195721966658,-0.356900627843377,0.0,0.0,0.0,0.0
324400000000,0.035302911511539706,-0.3623058090345988,0.0,0.0,0.0,0.0
324600000000,0.03499893837976877,-0.3984659010659371,0.0,0.0,0.0,0.0
324700000000,0.02963077149259771,-0.3604483262556892,0.0,0.0,0.0,0.0
324800000000,0.031026134843844155,-0.39750559343043296,0.0,0.0,0.0,0.0
324900000000,0.018374145555346534,-0.2613576108132119,0.0,0.0,0.0,0.0
325100000000,-7.059875590584625e-06,0.0,0.0,0.0,0.0,0.0
325200000000,0.0,0.0,0.0,0.0,0.0,0.04529104884189835
325300000000,0.0,0.0,0.0,0.0,0.0,0.08016952576274293
325400000000,0.0,0.0,0.0,0.0,0.0,0.12010128378552157
325600000000,0.0,0.0,0.0,0.0,0.0,0.10092730647109512
325700000000,0.0,0.0,0.0,0.0,0.0,0.10696648732816612
325800000000,0.0,0.0,0.0,0.0,0.0,0.11649398589979792
325900000000,0.0,0.0,0.0,0.0,0.0,0.12560951905450413
326100000000,0.0,0.0,0.0,0.0,0.0,0.1396622237516599
326200000000,0.0,0.0,0.0,0.0,0.0,0.3437281271537815
326300000000,0.0,0.0,0.0,0.0,0.0,0.5
326400000000,0.0,0.0,0.0,0.0,0.0,0.5
326600000000,0.0,0.0,0.0,0.0,0.0,0.5
326700000000,0.0,0.0,0.0,0.0,0.0,0.5
326800000000,0.0,0.0,0.0,0.0,0.0,0.5
326900000000,0.0,0.0,0.0,0.0,0.0,0.5
327100000000,0.0,0.0,0.0,0.0,0.0,0.49999999999999994
327200000000,0.0,0.0,0.0,0.0,0.0,0.5
327300000000,0.0,0.0,0.0,0.0,0.0,0.5
327400000000,0.0,0.0,0.0,0.0,0.0,0.5
327600000000,0.0,0.0,0.0,0.0,0.0,0.5
327700000000,0.0,0.0,0.0,0.0,0.0,0.5
327800000000,0.0,0.0,0.0,0.0,0.0,0.5
327900000000,0.0,0.0,0.0,0.0,0.0,0.49999999999999994
328100000000,0.0,0.0,0.0,0.0,0.0,0.5
328200000000,0.0,0.0,0.0,0.0,0.0,0.49999999999999994
328300000000,0.0,0.0,0.0,0.0,0.0,0.5
328400000000,0.0,0.0,0.0,0.0,0.0,0.5
328600000000,0.0,0.0,0.0,0.0,0.0,0.5
328700000000,0.0,0.0,0.0,0.0,0.0,0.5
328800000000,0.0,0.0,0.0,0.0,0.0,0.5
328900000000,0.0,0.0,0.0,0.0,0.0,0.5
329100000000,0.0,0.0,0.0,0.0,0.0,0.5
329200000000,0.0,0.0,0.0,0.0,0.0,0.5
329300000000,0.0,0.0,0.0,0.0,0.0,0.5
329400000000,0.0,0.0,0.0,0.0,0.0,0.5
329600000000,0.0,0.0,0.0,0.0,0.0,0.5
329700000000,0.0,0.0,0.0,0.0,0.0,0.5
329800000000,0.0,0.0,0.0,0.0,0.0,0.5
329900000000,0.0,0.0,0.0,0.0,0.0,0.5
330100000000,0.0,0.0,0.0,0.0,0.0,0.5
330200000000,0.0,0.0,0.0,0.0,0.0,0.5
330300000000,0.0,0.0,0.0,0.0,0.0,0.5
330400000000,0.0,0.0,0.0,0.0,0.0,0.5
330600000000,0.0,0.0,0.0,0.0,0.0,0.5
330700000000,0.0,0.0,0.0,0.0,0.0,0.5
330800000000,0.0,0.0,0.0,0.0,0.0,0.5
330900000000,0.0,0.0,0.0,0.0,0.0,0.5
331100000000,0.0,0.0,0.0,0.0,0.0,0.5
331200000000,0.0,0.0,0.0,0.0,0.0,0.5
331300000000,0.0,0.0,0.0,0.0,0.0,0.5
331400000000,0.0,0.0,0.0,0.0,0.0,0.5
331600000000,0.0,0.0,0.0,0.0,0.0,0.5
331700000000,0.0,0.0,0.0,0.0,0.0,0.0
331800000000,0.0,0.0,0.0,0.0,0.0,0.0
331900000000,0.0,0.0,0.0,0.0,0.0,0.0
332100000000,0.0,0.0,0.0,0.0,0.0,0.0
332200000000,0.0,0.0,0.0,0.0,0.0,0.0
332300000000,0.0,0.0,0.0,0.0,0.0,0.0
332400000000,0.0,0.0,0.0,0.0,0.0,0.0
332600000000,0.0,0.0,0.0,0.0,0.0,0.0
332700000000,0.0,0.0,0.0,0.0,0.0,0.0
332800000000,0.0,0.0,0.0,0.0,0.0,0.0
